id,name,AREA_KM²_,stroke-opacity,zone,zone_id,stroke-width,fill-opacity,lon,lat
1612,Cahabón,762.132534822,1,Alta Verapaz,16,0.46,0,-89.77152364523768,15.605420325661846
1614,Chahal,460.658173049,1,Alta Verapaz,16,0.46,0,-89.57638461901072,15.732808890137143
1613,Chisec,1095.89233203,1,Alta Verapaz,16,0.46,0,-90.29387020714539,15.891992302412701
1601,Cobán,2269.03389309,1,Alta Verapaz,16,0.46,0,-90.54023131167614,15.71072883430148
1615,Fray Bartolomé de Las Casas,1213.66282648,1,Alta Verapaz,16,0.46,0,-89.73671357847977,15.867474340904954
1611,Lanquín,236.600794022,1,Alta Verapaz,16,0.46,0,-89.9901737493097,15.567019502885827
1607,Panzós,730.820220895,1,Alta Verapaz,16,0.46,0,-89.65566512984918,15.309646751555887
1617,Raxruhá,568.771150843,1,Alta Verapaz,16,0.46,0,-90.08086525865238,15.892331511277959
1603,San Cristóbal Verapaz,384.689212603,1,Alta Verapaz,16,0.46,0,-90.56507714389392,15.397270860419239
1610,San Juan Chamelco,187.199112788,1,Alta Verapaz,16,0.46,0,-90.23653176758383,15.389802216784007
1609,San Pedro Carchá,1316.48882952,1,Alta Verapaz,16,0.46,0,-90.15203367406306,15.578977243837143
1616,Santa Catalina La Tinta,197.713382924,1,Alta Verapaz,16,0.46,0,-89.8338605517714,15.254576475601986
1602,Santa Cruz Verapaz,78.1174684008,1,Alta Verapaz,16,0.46,0,-90.4140283387138,15.339446637093861
1608,Senahú,706.924703747,1,Alta Verapaz,16,0.46,0,-89.83943705924212,15.418834092559543
1604,Tactic,116.556482482,1,Alta Verapaz,16,0.46,0,-90.33765310513415,15.298046339932476
1605,Tamahú,70.000053513,1,Alta Verapaz,16,0.46,0,-90.24167872449189,15.303074383097387
1606,Tucurú,219.44970806,1,Alta Verapaz,16,0.46,0,-90.08098046980821,15.302690909684303
1504,Cubulco,692.057202819,1,Baja Verapaz,15,0.46,0,-90.67124338791663,15.155355695670863
1506,El Chol,119.313116378,1,Baja Verapaz,15,0.46,0,-90.4872565813329,14.953565191809385
1505,Granados,154.70142818,1,Baja Verapaz,15,0.46,0,-90.57530480183577,14.936255866522185
1508,Purulhá,517.891396683,1,Baja Verapaz,15,0.46,0,-90.03830419464722,15.216099882597897
1503,Rabinal,312.15641491,1,Baja Verapaz,15,0.46,0,-90.50711710590154,15.113267616116218
1501,Salamá,675.916494553,1,Baja Verapaz,15,0.46,0,-90.28760000551033,15.069048463352457
1507,San Jerónimo,222.041371454,1,Baja Verapaz,15,0.46,0,-90.19422462337516,15.065538079988423
1502,San Miguel Chicaj,327.444118754,1,Baja Verapaz,15,0.46,0,-90.41311300964718,15.160904759413901
411,Acatenango,130.983293345,1,Chimaltenango,04,0.46,0,-90.95629586412409,14.54779989357757
401,Chimaltenango,49.09194866,1,Chimaltenango,04,0.46,0,-90.82231563070576,14.686325096950226
404,Comalapa,85.7539956599,1,Chimaltenango,04,0.46,0,-90.89870834549437,14.749174553585847
416,El Tejar,45.5663698162,1,Chimaltenango,04,0.46,0,-90.78871941623024,14.675827263427973
414,Parramos,29.4440018752,1,Chimaltenango,04,0.46,0,-90.82248722833435,14.590311821941004
409,Patzicía,64.7437739179,1,Chimaltenango,04,0.46,0,-90.9414311474097,14.636808058650074
407,Patzún,184.190398785,1,Chimaltenango,04,0.46,0,-91.03443888168573,14.647043775765097
408,Pochuta,129.508730519,1,Chimaltenango,04,0.46,0,-91.07489324385546,14.533889853826077
413,San Andrés Itzapa,67.6663031209,1,Chimaltenango,04,0.46,0,-90.86484163886628,14.608185911480126
402,San José Poaquil,96.5891183132,1,Chimaltenango,04,0.46,0,-90.90840361386809,14.856854616946237
403,San Martín Jilotepeque,410.125897951,1,Chimaltenango,04,0.46,0,-90.78165037209864,14.840445304819609
405,Santa Apolonia,46.1439855918,1,Chimaltenango,04,0.46,0,-90.95814398043409,14.82044687197308
410,Santa Cruz Balanyá,19.8135183107,1,Chimaltenango,04,0.46,0,-90.93327369796212,14.695378673591053
406,Tecpán Guatemala,247.905814112,1,Chimaltenango,04,0.46,0,-91.00608415226273,14.803275101922688
412,Yepocapa,205.475410108,1,Chimaltenango,04,0.46,0,-90.98530305515973,14.463890391175568
415,Zaragoza,51.9247630424,1,Chimaltenango,04,0.46,0,-90.87547035311005,14.682610373173864
2005,Camotán,231.195242707,1,Chiquimula,20,0.46,0,-89.2828656379608,14.854559226688929
2001,Chiquimula,365.948043276,1,Chiquimula,20,0.46,0,-89.57901429474813,14.803000108994098
2008,Concepción Las Minas,215.462322303,1,Chiquimula,20,0.46,0,-89.44913513897895,14.4876253212292
2007,Esquipulas,502.377879272,1,Chiquimula,20,0.46,0,-89.26702973966867,14.620620133890915
2011,Ipala,230.60994127,1,Chiquimula,20,0.46,0,-89.60825143363608,14.587517084553262
2004,Jocotán,251.755341709,1,Chiquimula,20,0.46,0,-89.37782567295801,14.812006711825259
2006,Olopa,112.45618415,1,Chiquimula,20,0.46,0,-89.31640455837659,14.700092320081135
2009,Quezaltepeque,245.170096028,1,Chiquimula,20,0.46,0,-89.45872166684151,14.61783540168095
2010,San Jacinto,70.9423424312,1,Chiquimula,20,0.46,0,-89.51292469915131,14.67818630679631
2002,San José La Arada,115.617950054,1,Chiquimula,20,0.46,0,-89.60834181947362,14.716198964545638
2003,San Juan Ermita,80.71627263,1,Chiquimula,20,0.46,0,-89.4267086549574,14.7347236534756
205,El Jícaro,114.634104309,1,El Progreso,02,0.46,0,-89.91586134648034,14.888515519081023
201,Guastatoya,218.242670213,1,El Progreso,02,0.46,0,-90.06356900709054,14.851355866895927
202,Morazán,347.851574219,1,El Progreso,02,0.46,0,-90.1619558111341,14.965961410447983
203,San Agustín Acasaguastlán,426.59213023,1,El Progreso,02,0.46,0,-89.98612886809134,15.019433038154485
208,San Antonio La Paz,147.51026796,1,El Progreso,02,0.46,0,-90.27488266095598,14.74722472321205
204,San Cristóbal Acasaguastlán,164.870272124,1,El Progreso,02,0.46,0,-89.87288384216151,15.004016222273854
206,Sanarate,274.400182299,1,El Progreso,02,0.46,0,-90.23803615335052,14.814341242135232
207,Sansare,144.18292099,1,El Progreso,02,0.46,0,-90.09911673439576,14.754010670100318
501,Escuintla,546.708113669,1,Escuintla,05,0.46,0,-90.79321411292167,14.29975826343378
508,Guanagazapa,227.624284488,1,Escuintla,05,0.46,0,-90.66458316423038,14.149431213206906
510,Iztapa,65.2360334973,1,Escuintla,05,0.46,0,-90.69893098219467,13.962755037696812
503,La Democracia,289.772278363,1,Escuintla,05,0.46,0,-90.94963711672986,14.13351140470897
507,La Gomera,518.605032915,1,Escuintla,05,0.46,0,-91.11248198091673,14.078383701212923
505,Masagua,473.724144945,1,Escuintla,05,0.46,0,-90.8095501764496,14.08751480520258
513,Nueva Concepción,524.384984117,1,Escuintla,05,0.46,0,-91.30072929704676,14.122413220063812
511,Palín,111.068767751,1,Escuintla,05,0.46,0,-90.70378463187701,14.395627921803134
509,San José,217.915038734,1,Escuintla,05,0.46,0,-90.88215365160548,13.958610705407247
512,San Vicente Pacaya,150.145446571,1,Escuintla,05,0.46,0,-90.64529920003957,14.332358187509609
502,Santa Lucía Cotzumalguapa,454.853935503,1,Escuintla,05,0.46,0,-91.0708877697759,14.287226680687453
514,Sipacate,269.834095368,1,Escuintla,05,0.46,0,-91.1430694444605,13.959681344063139
504,Siquinalá,184.498483301,1,Escuintla,05,0.46,0,-90.9400286016918,14.350044667496293
506,Tiquisate,471.610070127,1,Escuintla,05,0.46,0,-91.40415333819334,14.185516911718977
114,Amatitlán,100.963122124,1,Guatemala,01,0.46,0,-90.6118821747032,14.453413078249401
106,Chinautla,67.054117794,1,Guatemala,01,0.46,0,-90.49763042500179,14.727516369608091
112,Chuarrancho,117.977736363,1,Guatemala,01,0.46,0,-90.47246490434729,14.853126458325791
113,Fraijanes,115.171426681,1,Guatemala,01,0.46,0,-90.44179021001403,14.469396630650264
101,Guatemala,215.032413047,1,Guatemala,01,0.46,0,-90.47952984583273,14.63542733824879
108,Mixco,90.3252966585,1,Guatemala,01,0.46,0,-90.58725572613402,14.640860918280586
105,Palencia,217.732869299,1,Guatemala,01,0.46,0,-90.31956136750048,14.665582908709073
117,Petapa,23.7949937835,1,Guatemala,01,0.46,0,-90.55548411371596,14.507068676832363
103,San José Pinula,198.003296629,1,Guatemala,01,0.46,0,-90.34638418506259,14.55435228644286
104,San José del Golfo,76.4884252636,1,Guatemala,01,0.46,0,-90.37238370374219,14.793216631530639
110,San Juan Sacatepéquez,272.896895096,1,Guatemala,01,0.46,0,-90.65007249893738,14.769524042933456
107,San Pedro Ayampuc,106.829245388,1,Guatemala,01,0.46,0,-90.44207999053751,14.772337240722562
109,San Pedro Sacatepéquez,28.8807164768,1,Guatemala,01,0.46,0,-90.62182586933206,14.679395678681436
111,San Raimundo,124.980760548,1,Guatemala,01,0.46,0,-90.5598778201666,14.781910257193262
102,Santa Catarina Pinula,67.3446526996,1,Guatemala,01,0.46,0,-90.4650146407133,14.564498854834389
116,Villa Canales,280.015509266,1,Guatemala,01,0.46,0,-90.53224707998709,14.390665872074942
115,Villa Nueva,89.0674655409,1,Guatemala,01,0.46,0,-90.60628867946191,14.540836608951217
1327,Aguacatán,247.817361943,1,Huehuetenango,13,0.46,0,-91.27345019066138,15.36581737616671
1326,Barillas,889.649345973,1,Huehuetenango,13,0.46,0,-91.22117201620152,15.931645155973563
1302,Chiantla,543.248898999,1,Huehuetenango,13,0.46,0,-91.40798880383143,15.50305183478437
1319,Colotenango,63.3013486184,1,Huehuetenango,13,0.46,0,-91.71133758722007,15.445201612473578
1322,Concepción Huista,117.307246371,1,Huehuetenango,13,0.46,0,-91.64743046010072,15.654067689850534
1304,Cuilco,442.721435559,1,Huehuetenango,13,0.46,0,-91.9624239811866,15.46511927170639
1301,Huehuetenango,189.535611019,1,Huehuetenango,13,0.46,0,-91.38766979757592,15.314976800162977
1309,Ixtahuacán,239.861125515,1,Huehuetenango,13,0.46,0,-91.80491395651806,15.414905656767418
1307,Jacaltenango,163.324643469,1,Huehuetenango,13,0.46,0,-91.73325855499726,15.753114531475537
1312,La Democracia,241.182686209,1,Huehuetenango,13,0.46,0,-91.87581285371824,15.623209228737066
1311,La Libertad,95.6883886231,1,Huehuetenango,13,0.46,0,-91.9117471594068,15.564797852572195
1303,Malacatancito,411.964775047,1,Huehuetenango,13,0.46,0,-91.48353181908409,15.24441669710788
1305,Nentón,762.858606098,1,Huehuetenango,13,0.46,0,-91.67771248059564,15.946034660242786
1333,Petatán,16.6705407358,1,Huehuetenango,13,0.46,0,-91.72907798572396,15.619709015048828
1324,San Antonio Huista,106.88668273,1,Huehuetenango,13,0.46,0,-91.77376517502937,15.664598247860814
1329,San Gaspar Ixchil,27.8051617492,1,Huehuetenango,13,0.46,0,-91.71637294644468,15.377948248978125
1316,San Juan Atitán,76.0808646583,1,Huehuetenango,13,0.46,0,-91.62639519191396,15.47250139822743
1323,San Juan Ixcoy,185.706540593,1,Huehuetenango,13,0.46,0,-91.38638629082655,15.649316752420537
1318,San Mateo Ixtatán,547.648799539,1,Huehuetenango,13,0.46,0,-91.43922807790618,15.933011160858399
1313,San Miguel Acatán,129.070925828,1,Huehuetenango,13,0.46,0,-91.62422459534699,15.743182341417402
1306,San Pedro Necta,75.8085437672,1,Huehuetenango,13,0.46,0,-91.75551557748302,15.527813914415969
1314,San Rafael La Independencia,51.2295826141,1,Huehuetenango,13,0.46,0,-91.522314710006,15.729692607863289
1328,San Rafael Petzal,36.2167255012,1,Huehuetenango,13,0.46,0,-91.67258585021625,15.407271760476782
1325,San Sebastián Coatán,170.715472432,1,Huehuetenango,13,0.46,0,-91.58464644663553,15.813248672366864
1320,San Sebastián Huehuetenango,128.144965664,1,Huehuetenango,13,0.46,0,-91.55839516139793,15.429258648149215
1331,Santa Ana Huista,177.899183255,1,Huehuetenango,13,0.46,0,-91.84902554566763,15.743586510595348
1310,Santa Bárbara,149.457532554,1,Huehuetenango,13,0.46,0,-91.62545465857666,15.34132977123981
1317,Santa Eulalia,360.350932002,1,Huehuetenango,13,0.46,0,-91.32526256985162,15.750627357741571
1330,Santiago Chimaltenango,47.6203784416,1,Huehuetenango,13,0.46,0,-91.68513839581306,15.508420581756171
1308,Soloma,127.213197827,1,Huehuetenango,13,0.46,0,-91.43181740304647,15.700781563177003
1321,Tectitán,204.131337892,1,Huehuetenango,13,0.46,0,-92.03954856707807,15.364387466813485
1315,Todos Santos Cuchumatán,289.355428592,1,Huehuetenango,13,0.46,0,-91.58504139995416,15.572490861062969
1332,Unión Cantinil,44.3840870337,1,Huehuetenango,13,0.46,0,-91.73863864398771,15.589184157023373
1803,El Estor,1578.96909113,1,Izabal,18,0.46,0,-89.4015798567077,15.452587131395275
1805,Los Amates,1046.06640917,1,Izabal,18,0.46,0,-89.06136402836347,15.269423672128434
1802,Lívingston,1768.12780636,1,Izabal,18,0.46,0,-89.15102553215178,15.77733470291786
1802,Lívingston,592.884126772,1,Izabal,18,0.46,0,-88.8296793738326,15.661481097994674
1804,Morales,1330.41986311,1,Izabal,18,0.46,0,-88.77248842845556,15.446307066835983
1801,Puerto Barrios,1202.53043975,1,Izabal,18,0.46,0,-88.49058533740745,15.70428203412499
2101,Jalapa,686.377773424,1,Jalapa,21,0.46,0,-90.0312366564288,14.630438539321508
2107,Mataquescuintla,238.226558175,1,Jalapa,21,0.46,0,-90.2038765305381,14.555056209878522
2106,Monjas,148.363961459,1,Jalapa,21,0.46,0,-89.89832242601032,14.511537935848187
2105,San Carlos Alzatate,89.9403176431,1,Jalapa,21,0.46,0,-90.07666765996714,14.478488914844908
2103,San Luis Jilotepeque,210.470635806,1,Jalapa,21,0.46,0,-89.71505865386669,14.653489504048054
2104,San Manuel Chaparrón,129.02711204,1,Jalapa,21,0.46,0,-89.7611977332272,14.526371974571312
2102,San Pedro Pinula,531.815184091,1,Jalapa,21,0.46,0,-89.85432540490588,14.703485193161734
2204,Agua Blanca,239.267689766,1,Jutiapa,22,0.46,0,-89.59995546471983,14.458202918017442
2205,Asunción Mita,503.969702176,1,Jutiapa,22,0.46,0,-89.6673573716491,14.298887169239082
2207,Atescatempa,85.7660507038,1,Jutiapa,22,0.46,0,-89.7271540249455,14.175064877835583
2211,Comapa,174.129851711,1,Jutiapa,22,0.46,0,-89.91146369799303,14.115678039628005
2213,Conguaco,132.484182524,1,Jutiapa,22,0.46,0,-90.01627803721043,14.009912725146192
2209,El Adelanto,29.7999296054,1,Jutiapa,22,0.46,0,-89.85310236224976,14.174971635638219
2202,El Progreso,99.6589314864,1,Jutiapa,22,0.46,0,-89.85028261461332,14.379054547328732
2212,Jalpatagua,229.084363793,1,Jutiapa,22,0.46,0,-90.00975985919386,14.11434985173353
2208,Jerez,52.4195651244,1,Jutiapa,22,0.46,0,-89.76193445103053,14.076808954146932
2201,Jutiapa,625.730115934,1,Jutiapa,22,0.46,0,-89.93098999485878,14.311702555986333
2214,Moyuta,413.255405418,1,Jutiapa,22,0.46,0,-90.12562929282971,13.910680550488772
2215,Pasaco,149.070991925,1,Jutiapa,22,0.46,0,-90.22615496472594,13.9336688299172
2217,Quesada,140.036727701,1,Jutiapa,22,0.46,0,-90.05943862055115,14.285612721997042
2216,San José Acatempa,112.579129156,1,Jutiapa,22,0.46,0,-90.14549308462527,14.27195853859964
2203,Santa Catarina Mita,202.60449337,1,Jutiapa,22,0.46,0,-89.77057126200896,14.441115437624624
2206,Yupiltepeque,55.6770117653,1,Jutiapa,22,0.46,0,-89.7862473863548,14.176646405154022
2210,Zapotitlán,78.6777435536,1,Jutiapa,22,0.46,0,-89.82110621849328,14.116162465017172
1708,Dolores,1662.83889189,1,Petén,17,0.46,0,-89.35993888016367,16.57984428747738
1714,El Chal,959.972294575,1,Petén,17,0.46,0,-89.73381063460332,16.52563041992445
1701,Flores,3875.91136973,1,Petén,17,0.46,0,-89.53462292478913,17.37003625449573
1705,La Libertad,4985.44542455,1,Petén,17,0.46,0,-90.64304925463229,17.02983864564333
1713,Las Cruces,1761.39060855,1,Petén,17,0.46,0,-90.62323294248374,16.743392536728063
1711,Melchor de Mencos,2112.37237551,1,Petén,17,0.46,0,-89.2449513431055,17.322564449056202
1712,Poptún,1092.72083633,1,Petén,17,0.46,0,-89.5470812208427,16.333240355232277
1704,San Andrés,8050.56981626,1,Petén,17,0.46,0,-90.40510788191833,17.489474211536642
1703,San Benito,546.005975258,1,Petén,17,0.46,0,-90.07199213281739,16.930940185039706
1706,San Francisco,1579.86028311,1,Petén,17,0.46,0,-89.97802112859782,16.647439272927034
1702,San José,2090.94519771,1,Petén,17,0.46,0,-89.80971282174202,17.404563118819066
1709,San Luis,3095.13551152,1,Petén,17,0.46,0,-89.60531487440683,16.099244207582018
1707,Santa Ana,1488.64849546,1,Petén,17,0.46,0,-89.57690884291642,16.82470694681608
1710,Sayaxché,2671.41009564,1,Petén,17,0.46,0,-90.22213313907888,16.305570046726494
913,Almolonga,12.5490227215,1,Quetzaltenango,09,0.46,0,-91.48430464306848,14.81171257859887
906,Cabricán,83.6650519526,1,Quetzaltenango,09,0.46,0,-91.64920428883883,15.104010323036496
907,Cajolá,20.5296630088,1,Quetzaltenango,09,0.46,0,-91.61292714474484,14.935078136081868
914,Cantel,49.738350474,1,Quetzaltenango,09,0.46,0,-91.43962414362721,14.816728404108614
920,Coatepeque,418.44783144,1,Quetzaltenango,09,0.46,0,-91.97912437013785,14.641392687590814
917,Colomba,205.655884327,1,Quetzaltenango,09,0.46,0,-91.75423161211505,14.707721894690621
911,Concepción Chiquirichapa,21.892127963,1,Quetzaltenango,09,0.46,0,-91.61973778984485,14.844756692204928
919,El Palmar,175.884120824,1,Quetzaltenango,09,0.46,0,-91.60827466697715,14.698652962676416
922,Flores Costa Cuca,72.4431498408,1,Quetzaltenango,09,0.46,0,-91.86342032089445,14.6331813238806
921,Génova,168.286209364,1,Quetzaltenango,09,0.46,0,-91.8452467355317,14.566485434715021
915,Huitán,36.3390373112,1,Quetzaltenango,09,0.46,0,-91.62775737867466,15.04600000445781
923,La Esperanza,12.2491070767,1,Quetzaltenango,09,0.46,0,-91.57712023801152,14.87846162216829
903,Olintepeque,32.1791177056,1,Quetzaltenango,09,0.46,0,-91.53593386754355,14.893632570275118
924,Palestina de Los Altos,36.0217532779,1,Quetzaltenango,09,0.46,0,-91.67588929475762,14.93319488632501
901,Quetzaltenango,126.831387195,1,Quetzaltenango,09,0.46,0,-91.53337958231336,14.816350950736426
902,Salcajá,16.8801906421,1,Quetzaltenango,09,0.46,0,-91.46240313175878,14.877676132340246
904,San Carlos Sija,226.540541175,1,Quetzaltenango,09,0.46,0,-91.5689121146643,15.077596916448764
918,San Francisco La Unión,16.888020794,1,Quetzaltenango,09,0.46,0,-91.54621371061118,14.925892345662659
909,San Juan Ostuncalco,109.00813898,1,Quetzaltenango,09,0.46,0,-91.68977729238237,14.87237808917773
912,San Martín Sacatepéquez,143.758580251,1,Quetzaltenango,09,0.46,0,-91.66439586658156,14.795258976058419
910,San Mateo,10.8236313508,1,Quetzaltenango,09,0.46,0,-91.5854923857994,14.844679309339792
908,San Miguel Sigüila,17.1287577019,1,Quetzaltenango,09,0.46,0,-91.60217814466414,14.903192397412578
905,Sibilia,41.0664800804,1,Quetzaltenango,09,0.46,0,-91.64137730808355,14.989258673038059
916,Zunil,77.4623541206,1,Quetzaltenango,09,0.46,0,-91.49620390435,14.744984564409881
1418,Canillá,102.145644152,1,Quiché,14,0.46,0,-90.864086562578,15.19632330479567
1405,Chajul,525.832278747,1,Quiché,14,0.46,0,-90.99280878541853,15.589366299657431
1419,Chicamán,566.674456798,1,Quiché,14,0.46,0,-90.67649656886583,15.413542181394217
1406,Chichicastenango,245.845344601,1,Quiché,14,0.46,0,-91.09211458628153,14.897079004100512
1402,Chiché,115.82245255,1,Quiché,14,0.46,0,-91.0448518269219,15.011256579702824
1403,Chinique,61.2160847052,1,Quiché,14,0.46,0,-91.02205019435236,15.072770484451977
1410,Cunén,226.029723068,1,Quiché,14,0.46,0,-91.01816994196311,15.366111812229367
1420,Ixcán,1585.20055242,1,Quiché,14,0.46,0,-90.8673827784143,15.927859687928011
1412,Joyabaj,472.854916753,1,Quiché,14,0.46,0,-90.82113470175827,14.986327571841251
1413,Nebaj,851.369918561,1,Quiché,14,0.46,0,-91.17331060871689,15.562299158632172
1421,Pachalum,41.8301518348,1,Quiché,14,0.46,0,-90.65438965432202,14.91904939890908
1407,Patzité,53.183653976,1,Quiché,14,0.46,0,-91.19675396609587,14.97161402591586
1416,Sacapulas,368.235378623,1,Quiché,14,0.46,0,-91.11302591502665,15.264098048096697
1414,San Andrés Sajcabajá,169.383905446,1,Quiché,14,0.46,0,-90.94169254390151,15.24288819622311
1408,San Antonio Ilotenango,138.721257665,1,Quiché,14,0.46,0,-91.21447396974962,15.049370064550896
1417,San Bartolomé Jocotenango,103.440432118,1,Quiché,14,0.46,0,-91.03368284372614,15.184516999614047
1411,San Juan Cotzal,163.027395289,1,Quiché,14,0.46,0,-91.02205141221249,15.425481261260853
1409,San Pedro Jocopilas,294.94201308,1,Quiché,14,0.46,0,-91.16622056506094,15.160548363556993
1401,Santa Cruz del Quiché,112.262885594,1,Quiché,14,0.46,0,-91.12360167847706,15.041290489351006
1415,Uspantán,837.330270842,1,Quiché,14,0.46,0,-90.81924339693026,15.5039768334744
1404,Zacualpa,247.725565633,1,Quiché,14,0.46,0,-90.8850271376259,15.093353006041262
1107,Champerico,327.934389094,1,Retalhuleu,11,0.46,0,-91.8841910994559,14.348875448843552
1109,El Asintal,93.6392297842,1,Retalhuleu,11,0.46,0,-91.7498797941774,14.569863881136376
1108,Nuevo San Carlos,86.5185130244,1,Retalhuleu,11,0.46,0,-91.6918990419292,14.626096423998687
1101,Retalhuleu,807.320561417,1,Retalhuleu,11,0.46,0,-91.87007918965863,14.439335101650594
1106,San Andrés Villa Seca,435.723031038,1,Retalhuleu,11,0.46,0,-91.65683130827391,14.317883783718557
1105,San Felipe,36.6100927745,1,Retalhuleu,11,0.46,0,-91.60249267990486,14.631002212493286
1104,San Martín Zapotitlán,9.39199523797,1,Retalhuleu,11,0.46,0,-91.59391254898017,14.613586489235566
1102,San Sebastián,17.7157642735,1,Retalhuleu,11,0.46,0,-91.6497077480224,14.566655209401743
1103,Santa Cruz Muluá,128.181837493,1,Retalhuleu,11,0.46,0,-91.65451033958948,14.464058058527533
314,Alotenango,90.149646665,1,Sacatepéquez,03,0.46,0,-90.81963380898618,14.45954214226174
301,Antigua Guatemala,68.9362512843,1,Sacatepéquez,03,0.46,0,-90.72534771926134,14.545685498963074
312,Ciudad Vieja,35.7475222506,1,Sacatepéquez,03,0.46,0,-90.77350777648525,14.506357822127613
302,Jocotenango,9.95813350987,1,Sacatepéquez,03,0.46,0,-90.73404227870856,14.588530921641812
310,Magdalena Milpas Altas,14.5734469445,1,Sacatepéquez,03,0.46,0,-90.67748488959836,14.5433086246783
303,Pastores,39.1986606108,1,Sacatepéquez,03,0.46,0,-90.77150011398415,14.598118772308528
315,San Antonio Aguas Calientes,5.151431112,1,Sacatepéquez,03,0.46,0,-90.78221374862149,14.553407519560436
307,San Bartolomé Milpas Altas,8.35538072216,1,Sacatepéquez,03,0.46,0,-90.68568421707464,14.601706483503051
308,San Lucas Sacatepéquez,23.2898353401,1,Sacatepéquez,03,0.46,0,-90.6487040096335,14.597923644075388
313,San Miguel Dueñas,44.7805506077,1,Sacatepéquez,03,0.46,0,-90.83250044842657,14.527804049226216
316,Santa Catarina Barahona,10.5516643562,1,Sacatepéquez,03,0.46,0,-90.80626477265496,14.55554128693505
309,Santa Lucía Milpas Altas,9.20138529503,1,Sacatepéquez,03,0.46,0,-90.67530696109687,14.568553995755087
311,Santa María de Jesús,60.843023134,1,Sacatepéquez,03,0.46,0,-90.69901934540324,14.4759433972363
306,Santiago Sacatepéquez,40.483254345,1,Sacatepéquez,03,0.46,0,-90.68148375928313,14.641106367396853
305,Santo Domingo Xenacoj,24.7832866418,1,Sacatepéquez,03,0.46,0,-90.70119069458512,14.679260013260953
304,Sumpango,50.5541167132,1,Sacatepéquez,03,0.46,0,-90.74549888581653,14.657901139947795
1217,Ayutla,118.658168033,1,San Marcos,12,0.46,0,-92.13026678956965,14.728396403516117
1216,Catarina,81.4064716263,1,San Marcos,12,0.46,0,-92.07005980900595,14.846897790081318
1204,Comitancillo,134.788917429,1,San Marcos,12,0.46,0,-91.74646620544512,15.111020432901402
1206,Concepción Tutuapa,224.140372253,1,San Marcos,12,0.46,0,-91.86906088075716,15.29041267775594
1220,El Quetzal,87.4685292151,1,San Marcos,12,0.46,0,-91.82213647856693,14.771648685022493
1214,El Rodeo,51.7065046285,1,San Marcos,12,0.46,0,-91.99850212113135,14.888024876552787
1213,El Tumbador,165.704827869,1,San Marcos,12,0.46,0,-91.94718967889371,14.847803120847885
1227,Esquipulas Palo Gordo,50.5194945079,1,San Marcos,12,0.46,0,-91.84586856587617,14.92594066112933
1223,Ixchiguán,104.432772093,1,San Marcos,12,0.46,0,-91.91547371885417,15.143860125779112
1230,La Blanca,98.8894528999,1,San Marcos,12,0.46,0,-92.11973837099862,14.553580259699505
1221,La Reforma,74.1250615269,1,San Marcos,12,0.46,0,-91.83756541682224,14.810484470434393
1215,Malacatán,212.495024418,1,San Marcos,12,0.46,0,-92.10612240265627,14.919187093690127
1212,Nuevo Progreso,140.405210215,1,San Marcos,12,0.46,0,-91.90758559662187,14.793434684435308
1218,Ocós,54.2429312328,1,San Marcos,12,0.46,0,-92.18071130590003,14.553930847014767
1222,Pajapita,131.124178753,1,San Marcos,12,0.46,0,-92.05559924518846,14.735632289471171
1228,Río Blanco,31.1947039658,1,San Marcos,12,0.46,0,-91.68501247095246,15.041476056748163
1203,San Antonio Sacatepéquez,47.3091183833,1,San Marcos,12,0.46,0,-91.70945209707475,14.96270149554995
1225,San Cristóbal Cucho,29.7044555633,1,San Marcos,12,0.46,0,-91.76888407044389,14.888715408184291
1224,San José Ojetenam,78.6165182646,1,San Marcos,12,0.46,0,-91.9603038138589,15.232017075309908
1229,San Lorenzo,44.8265611758,1,San Marcos,12,0.46,0,-91.74403408596193,15.026690969461143
1201,San Marcos,120.543838986,1,San Marcos,12,0.46,0,-91.83485366902474,15.001571797065719
1205,San Miguel Ixtahuacán,196.17226425,1,San Marcos,12,0.46,0,-91.73449432806574,15.262938397095244
1219,San Pablo,139.23328237,1,San Marcos,12,0.46,0,-91.96035171562113,14.97718384449197
1202,San Pedro Sacatepéquez,77.3710511619,1,San Marcos,12,0.46,0,-91.76060160500614,14.966539555768994
1211,San Rafael Pie de la Cuesta,45.2017902713,1,San Marcos,12,0.46,0,-91.91182629550852,14.928117149201958
1208,Sibinal,104.392979637,1,San Marcos,12,0.46,0,-92.05633561047325,15.136579573319782
1226,Sipacapa,151.419957343,1,San Marcos,12,0.46,0,-91.65768828660151,15.192948559563387
1207,Tacaná,361.988724267,1,San Marcos,12,0.46,0,-92.10088917579151,15.263837853411262
1209,Tajumulco,251.390196801,1,San Marcos,12,0.46,0,-91.97077602113224,15.06245595921037
1210,Tejutla,143.002050555,1,San Marcos,12,0.46,0,-91.83059003375911,15.158509015099842
602,Barberena,224.672027108,1,Santa Rosa,06,0.46,0,-90.41457272359865,14.305523273886905
604,Casillas,204.711383084,1,Santa Rosa,06,0.46,0,-90.16644147376945,14.389516207606757
608,Chiquimulilla,600.973583855,1,Santa Rosa,06,0.46,0,-90.33488812010428,13.972952378322654
601,Cuilapa,213.943725071,1,Santa Rosa,06,0.46,0,-90.28440514583399,14.249160850023715
611,Guazacapán,109.640701957,1,Santa Rosa,06,0.46,0,-90.43001362630162,14.024065771305658
614,Nueva Santa Rosa,132.154529305,1,Santa Rosa,06,0.46,0,-90.27244354612415,14.371737136758155
606,Oratorio,310.660854026,1,Santa Rosa,06,0.46,0,-90.15773141718125,14.121077080907225
613,Pueblo Nuevo Viñas,250.68680953,1,Santa Rosa,06,0.46,0,-90.49781566653293,14.21704287522186
607,San Juan Tecuaco,33.6775598547,1,Santa Rosa,06,0.46,0,-90.26898402289821,14.072054094627365
605,San Rafael Las Flores,85.2327881892,1,Santa Rosa,06,0.46,0,-90.16235768498694,14.450794636414866
612,Santa Cruz Naranjo,58.5184108109,1,Santa Rosa,06,0.46,0,-90.37617935131065,14.381704219690414
610,Santa María Ixhuatán,164.909961278,1,Santa Rosa,06,0.46,0,-90.25790848610062,14.144769077899921
603,Santa Rosa de Lima,134.203424016,1,Santa Rosa,06,0.46,0,-90.33714539479114,14.442945513872152
609,Taxisco,640.572171841,1,Santa Rosa,06,0.46,0,-90.54734677626362,14.0341124953788
708,Concepción,14.9756471597,1,Sololá,07,0.46,0,-91.13510370710819,14.782384230049301
705,Nahualá,186.22095833,1,Sololá,07,0.46,0,-91.38850230878997,14.761355504270536
710,Panajachel,7.72394174667,1,Sololá,07,0.46,0,-91.1467300169919,14.748086950532725
709,San Andrés Semetabaj,52.9755275433,1,Sololá,07,0.46,0,-91.10139905667712,14.745307170035346
712,San Antonio Palopó,26.1211012356,1,Sololá,07,0.46,0,-91.10839567393442,14.664716646340763
702,San José Chacayá,15.790991334,1,Sololá,07,0.46,0,-91.22829704046188,14.771044830717845
717,San Juan La Laguna,37.1767000607,1,Sololá,07,0.46,0,-91.31467358213634,14.667791744524418
713,San Lucas Tolimán,73.6885723392,1,Sololá,07,0.46,0,-91.14663154607277,14.595802172127165
716,San Marcos La Laguna,9.1855000071,1,Sololá,07,0.46,0,-91.25997478344576,14.735932032377848
715,San Pablo La Laguna,6.13517880831,1,Sololá,07,0.46,0,-91.28082328629229,14.729905649356649
718,San Pedro La Laguna,50.6618204839,1,Sololá,07,0.46,0,-91.2780020874411,14.645151291697292
706,Santa Catarina Ixtahuacán,189.767681629,1,Sololá,07,0.46,0,-91.3815390429965,14.72040844306873
711,Santa Catarina Palopó,4.73083894556,1,Sololá,07,0.46,0,-91.13061453023498,14.718848685738699
707,Santa Clara La Laguna,14.3575732023,1,Sololá,07,0.46,0,-91.30565859187334,14.723523862370227
714,Santa Cruz La Laguna,11.2680018233,1,Sololá,07,0.46,0,-91.22407173108664,14.743588546971548
704,Santa Lucía Utatlán,51.0676566925,1,Sololá,07,0.46,0,-91.27485247545027,14.779374753959305
703,Santa María Visitación,20.7565973662,1,Sololá,07,0.46,0,-91.33163193839408,14.701939289016018
719,Santiago Atitlán,115.928160908,1,Sololá,07,0.46,0,-91.22780908925955,14.603819168978836
701,Sololá,151.369477372,1,Sololá,07,0.46,0,-91.18096559181646,14.82323809212662
1013,Chicacao,211.034681775,1,Suchitepéquez,10,0.46,0,-91.34903629665276,14.523305525347697
1002,Cuyotenango,89.1976237028,1,Suchitepéquez,10,0.46,0,-91.56411309860452,14.48829549428668
1001,Mazatenango,65.2498906188,1,Suchitepéquez,10,0.46,0,-91.51907852044452,14.51143195521443
1014,Patulul,338.902611639,1,Suchitepéquez,10,0.46,0,-91.17634147879805,14.38037903094873
1019,Pueblo Nuevo,18.5145429706,1,Suchitepéquez,10,0.46,0,-91.52791525617322,14.66105603248806
1020,Río Bravo,158.261982819,1,Suchitepéquez,10,0.46,0,-91.3331954007482,14.378454644437197
1008,Samayac,25.8254059885,1,Suchitepéquez,10,0.46,0,-91.46986224826132,14.572639884311608
1010,San Antonio Suchitepéquez,75.0189859524,1,Suchitepéquez,10,0.46,0,-91.40902139684285,14.51732071346596
1004,San Bernardino,14.3151732159,1,Suchitepéquez,10,0.46,0,-91.45414338293706,14.530175374216622
1003,San Francisco Zapotitlán,48.8972654355,1,Suchitepéquez,10,0.46,0,-91.51950960663183,14.617138844927032
1012,San Gabriel,6.60089856347,1,Suchitepéquez,10,0.46,0,-91.5145155140192,14.507518971439946
1005,San José El Ídolo,137.731930465,1,Suchitepéquez,10,0.46,0,-91.43739844463727,14.381930743155765
1021,San José La Máquina,147.071940615,1,Suchitepéquez,10,0.46,0,-91.58327194326674,14.283464849722197
1016,San Juan Bautista,34.6168173012,1,Suchitepéquez,10,0.46,0,-91.19897048978055,14.428446697627608
1007,San Lorenzo,284.895207211,1,Suchitepéquez,10,0.46,0,-91.5564310459212,14.219528517033398
1011,San Miguel Panán,28.801206641,1,Suchitepéquez,10,0.46,0,-91.35969696774792,14.505965475667892
1009,San Pablo Jocopilas,26.1155740608,1,Suchitepéquez,10,0.46,0,-91.4312697131859,14.591960540624923
1015,Santa Bárbara,177.078755673,1,Suchitepéquez,10,0.46,0,-91.24681404752263,14.474324678314925
1006,Santo Domingo Suchitepéquez,236.094452188,1,Suchitepéquez,10,0.46,0,-91.49307578116908,14.296907139498998
1017,Santo Tomás La Unión,12.4820085362,1,Suchitepéquez,10,0.46,0,-91.41218116936672,14.623681980901836
1018,Zunilito,13.0906895322,1,Suchitepéquez,10,0.46,0,-91.49846941784358,14.631346954373397
805,Momostenango,359.200888668,1,Totonicapán,08,0.46,0,-91.41720989748534,15.088843920463475
804,San Andrés Xecul,16.491724251,1,Totonicapán,08,0.46,0,-91.49727993697947,14.91041181317724
808,San Bartolo,56.3184056982,1,Totonicapán,08,0.46,0,-91.46094140835989,15.117110518021612
802,San Cristóbal Totonicapán,44.2623898454,1,Totonicapán,08,0.46,0,-91.47254110889264,14.92589581027417
803,San Francisco El Alto,72.638155833,1,Totonicapán,08,0.46,0,-91.47729557623252,14.969703435331722
807,Santa Lucía La Reforma,45.4084879761,1,Totonicapán,08,0.46,0,-91.27836670275963,15.151011033992837
806,Santa María Chiquimula,237.503129643,1,Totonicapán,08,0.46,0,-91.31720257248291,15.013515833991072
801,Totonicapán,244.535280336,1,Totonicapán,08,0.46,0,-91.32104673594367,14.898005413969605
1907,Cabañas,138.771449904,1,Zacapa,19,0.46,0,-89.77669818627213,14.88517567458347
1902,Estanzuela,95.7218321854,1,Zacapa,19,0.46,0,-89.6128790518456,14.979235794412173
1904,Gualán,783.583971024,1,Zacapa,19,0.46,0,-89.30252240347214,15.146813653639542
1910,Huité,85.0941330405,1,Zacapa,19,0.46,0,-89.69764793771974,14.918129605756599
1909,La Unión,215.23717991,1,Zacapa,19,0.46,0,-89.27808376701246,14.95521756362786
1903,Río Hondo,458.09348708,1,Zacapa,19,0.46,0,-89.6002676997267,15.09842458509426
1908,San Diego,103.65931091,1,Zacapa,19,0.46,0,-89.76000152874352,14.798086339727497
1911,San Jorge,82.5142123857,1,Zacapa,19,0.46,0,-89.60371250133191,14.9093000241827
1905,Teculután,212.262488629,1,Zacapa,19,0.46,0,-89.78256589711425,15.079567351772539
1906,Usumatlán,108.37001071,1,Zacapa,19,0.46,0,-89.80030160361241,14.99469475273711
1901,Zacapa,411.651660521,1,Zacapa,19,0.46,0,-89.4611488187478,14.977333930028932
